City_ID,City,Country,Lat,Lng,Max Temp,Humidity,Cloudiness,Wind Speed,Weather Description
0,Kiunga,PG,-6.1219,141.2906,71.98,99,100,2.39,overcast clouds
1,Pauini,BR,-7.7136,-66.9764,90.21,51,73,1.54,broken clouds
2,Plettenberg Bay,ZA,-34.0527,23.3716,70.9,70,0,12.1,clear sky
3,Iqaluit,CA,63.7506,-68.5145,6.53,84,75,3.44,broken clouds
4,Naze,JP,28.3667,129.4833,50.92,73,98,26.49,light rain
5,Bambous Virieux,MU,-20.3428,57.7575,76.21,78,20,3.44,few clouds
6,Busselton,AU,-33.65,115.3333,63.14,71,9,9.46,clear sky
7,Kavaratti,IN,10.5669,72.642,81.52,65,59,6.82,broken clouds
8,Dali,CN,25.7,100.1833,42.94,76,2,3.89,clear sky
9,Saint George,US,37.1041,-113.5841,36.19,64,0,0.0,clear sky
10,Chuy,UY,-33.6971,-53.4616,77.38,51,11,16.08,few clouds
11,Barrow,US,71.2906,-156.7887,15.82,86,100,10.36,overcast clouds
12,Ust-Maya,RU,60.4167,134.5333,-12.87,98,100,0.72,overcast clouds
13,Bengkulu,ID,-3.8004,102.2655,76.42,87,100,5.23,moderate rain
14,Yellowknife,CA,62.456,-114.3525,-37.68,67,20,3.44,few clouds
15,Mataura,NZ,-46.1927,168.8643,53.53,99,97,1.07,overcast clouds
16,Kapaa,US,22.0752,-159.319,71.58,77,30,4.43,scattered clouds
17,Ushuaia,AR,-54.8,-68.3,64.06,52,0,3.44,clear sky
18,Khanpur,PK,28.6453,70.6567,59.92,21,0,6.13,clear sky
19,Yokadouma,CM,3.5167,15.05,80.22,44,91,1.92,overcast clouds
20,Coahuayana,MX,18.7333,-103.6833,87.42,35,0,5.14,clear sky
21,Geraldton,AU,-28.7667,114.6,70.21,43,3,9.22,clear sky
22,Pevek,RU,69.7008,170.3133,-0.53,78,0,2.21,clear sky
23,Port Alfred,ZA,-33.5906,26.891,74.23,83,0,11.9,clear sky
24,New Norfolk,AU,-42.7826,147.0587,55.71,76,72,1.43,broken clouds
25,Pekan,MY,3.4836,103.3996,75.31,93,100,6.29,heavy intensity rain
26,Tilichiki,RU,60.4667,166.1,-1.16,89,97,11.59,overcast clouds
27,Port Elizabeth,ZA,-33.918,25.5701,80.1,62,0,12.66,clear sky
28,Yuanping,CN,38.7153,112.7575,18.01,48,0,3.38,clear sky
29,Rikitea,PF,-23.1203,-134.9692,76.68,78,6,8.39,clear sky
30,Castro,BR,-24.7911,-50.0119,68.31,64,89,5.57,overcast clouds
31,Hobart,AU,-42.8794,147.3294,56.05,93,100,3.44,overcast clouds
32,Krasnoselkup,RU,65.7,82.4667,-9.56,95,93,13.22,overcast clouds
33,Hilo,US,19.7297,-155.09,76.28,85,100,3.44,overcast clouds
34,Chokurdakh,RU,70.6333,147.9167,-14.62,100,14,1.61,few clouds
35,Vaini,TO,-21.2,-175.2,77.16,94,75,4.61,broken clouds
36,Nikolskoye,RU,59.7035,30.7861,35.8,96,100,8.99,overcast clouds
37,Hithadhoo,MV,-0.6,73.0833,81.68,70,78,16.55,broken clouds
38,Punta Arenas,CL,-53.15,-70.9167,62.62,82,100,8.05,light intensity shower rain
39,Lebu,CL,-37.6167,-73.65,62.82,64,70,10.11,broken clouds
40,Mount Gambier,AU,-37.8333,140.7667,56.66,95,51,2.93,broken clouds
41,Dryden,CA,49.7833,-92.7503,-9.11,77,100,9.22,light snow
42,Atuona,PF,-9.8,-139.0333,78.78,79,20,19.51,few clouds
43,Amapa,BR,1.0,-52.0,77.41,94,84,4.16,broken clouds
44,Bubaque,GW,11.2833,-15.8333,82.76,46,94,6.96,overcast clouds
45,Cidreira,BR,-30.1811,-50.2056,73.67,59,4,16.55,clear sky
46,Hermanus,ZA,-34.4187,19.2345,67.8,84,34,6.17,scattered clouds
47,Upernavik,GL,72.7868,-56.1549,0.12,97,10,17.34,clear sky
48,Vermilion,US,40.1667,-87.7506,37.74,74,100,3.44,overcast clouds
49,Carnarvon,AU,-24.8667,113.6333,84.38,44,80,16.91,broken clouds
50,Ponta Do Sol,PT,32.6667,-17.1,70.0,89,16,2.51,few clouds
51,Hulan Ergi,CN,47.2042,123.6333,2.17,72,100,15.37,overcast clouds
52,Whitehorse,CA,60.7161,-135.0538,-19.43,76,100,0.0,light snow
53,Tasiilaq,GL,65.6145,-37.6368,4.44,59,5,6.51,clear sky
54,Henties Bay,NA,-22.116,14.2845,65.1,85,8,7.54,clear sky
55,Turukhansk,RU,65.8167,87.9833,-12.24,95,100,11.03,overcast clouds
56,Albany,US,42.6001,-73.9662,36.43,76,100,1.01,overcast clouds
57,Saint-Philippe,RE,-21.3585,55.7679,78.39,78,100,8.3,overcast clouds
58,Avera,US,33.194,-82.5271,43.38,87,99,5.28,overcast clouds
59,Lorengau,PG,-2.0226,147.2712,82.06,79,97,8.81,overcast clouds
60,Andenes,NO,69.3143,16.1194,31.98,80,75,12.66,broken clouds
61,Butaritari,KI,3.0707,172.7902,81.48,78,91,21.09,overcast clouds
62,Kruisfontein,ZA,-34.0033,24.7314,77.88,53,0,16.87,clear sky
63,Zhuanghe,CN,39.7008,122.9911,5.9,72,9,12.39,clear sky
64,Saskylakh,RU,71.9167,114.0833,-15.88,88,18,13.76,few clouds
65,Rabak,SD,13.1809,32.74,82.47,20,56,8.43,broken clouds
66,Hastings,GB,50.8552,0.5729,51.98,93,95,16.62,overcast clouds
67,Souillac,MU,-20.5167,57.5167,75.58,78,20,3.44,few clouds
68,Lagoa,PT,39.05,-27.9833,59.74,73,100,26.08,overcast clouds
69,Vanavara,RU,60.34,102.2797,19.9,97,100,2.59,light snow
70,Lakeside,US,30.13,-81.7682,57.34,92,100,9.22,overcast clouds
71,Jamestown,US,42.097,-79.2353,37.71,72,100,11.01,overcast clouds
72,Asau,RO,46.4333,26.4,25.72,74,100,5.32,overcast clouds
73,Russell,US,32.3502,-85.1999,49.28,87,100,0.0,overcast clouds
74,Caxito,AO,-8.5785,13.6643,77.05,73,85,7.14,overcast clouds
75,Savalou,BJ,7.9281,1.9756,85.98,16,87,3.38,overcast clouds
76,Khilok,RU,51.3674,110.4676,-9.92,98,32,2.1,scattered clouds
77,Puerto Ayora,EC,-0.7393,-90.3518,80.56,89,83,3.0,broken clouds
78,Miri,MY,4.4148,114.0089,76.15,94,40,5.75,moderate rain
79,Ukiah,US,39.1502,-123.2078,56.1,96,100,0.0,overcast clouds
80,Tiksi,RU,71.6872,128.8694,-10.19,95,99,6.44,overcast clouds
81,Kavieng,PG,-2.5744,150.7967,82.13,77,87,10.45,overcast clouds
82,Kismayo,SO,-0.3582,42.5454,79.3,85,95,15.97,overcast clouds
83,Saint Marys,US,30.7305,-81.5465,55.51,93,100,10.36,overcast clouds
84,Aykhal,RU,66.0,111.5,-15.57,88,100,8.86,overcast clouds
85,Georgetown,MY,5.4112,100.3354,79.9,92,20,0.0,few clouds
86,Cherskiy,RU,68.75,161.3,-1.19,72,0,2.62,clear sky
87,Dingle,PH,10.9995,122.6711,74.98,93,88,6.33,overcast clouds
88,Eenhana,NA,-17.4667,16.3333,68.68,74,99,10.27,light rain
89,Ilulissat,GL,69.2167,-51.1,-7.89,74,1,4.68,clear sky
90,Mogadishu,SO,2.0371,45.3438,78.73,84,26,17.43,scattered clouds
91,Pangnirtung,CA,66.1451,-65.7125,8.6,66,40,4.61,scattered clouds
92,Belyy Yar,RU,53.6039,91.3903,10.29,77,0,4.47,clear sky
93,Bilibino,RU,68.0546,166.4372,6.4,69,0,4.79,clear sky
94,Iquique,CL,-20.2208,-70.1431,75.24,66,1,10.94,clear sky
95,Holme,DK,56.1138,10.1725,44.19,91,46,15.23,scattered clouds
96,Amga,RU,60.8953,131.9608,-14.48,97,100,1.05,overcast clouds
97,Mecca,SA,21.4267,39.8261,77.45,66,19,13.22,few clouds
98,Adrar,MR,20.5022,-10.0711,72.03,16,0,11.3,clear sky
99,Los Llanos De Aridane,ES,28.6585,-17.9182,70.12,49,20,6.91,few clouds
100,Sri Aman,MY,1.2376,111.4621,77.09,94,100,0.0,overcast clouds
101,Redmond,US,47.674,-122.1215,23.7,76,100,1.99,overcast clouds
102,Santa Maria,BR,-29.6842,-53.8069,87.1,45,20,12.66,few clouds
103,Northam,GB,51.0333,-4.2167,50.25,98,99,11.18,overcast clouds
104,Port-Gentil,GA,-0.7193,8.7815,82.36,83,40,9.22,scattered clouds
105,Harper,LR,4.375,-7.7169,81.0,74,33,8.77,scattered clouds
106,Avarua,CK,-21.2078,-159.775,78.85,89,40,8.05,scattered clouds
107,Yaan,NG,7.3833,8.5667,82.4,19,61,5.17,broken clouds
108,Praya,CV,14.9215,-23.5087,79.34,57,20,20.71,few clouds
109,Vestmannaeyjar,IS,63.4427,-20.2734,31.19,64,40,10.36,scattered clouds
110,Shingu,JP,33.7333,135.9833,36.14,69,27,16.53,scattered clouds
111,Narsaq,GL,60.9167,-46.05,8.19,64,0,8.7,clear sky
112,Devonport,AU,-41.1667,146.35,52.02,80,8,5.39,clear sky
113,Klaksvik,FO,62.2266,-6.589,34.72,58,100,23.24,overcast clouds
114,Svetlogorsk,BY,52.6333,29.7333,33.39,100,100,5.44,overcast clouds
115,Faya,SA,18.3851,42.4509,57.31,63,2,3.4,clear sky
116,Kodiak,US,57.79,-152.4072,35.19,98,100,41.11,snow
117,Chambishi,ZM,-12.6325,28.0537,62.01,98,100,3.74,light rain
118,Erdenet,MN,49.0333,104.0833,-0.96,96,37,4.52,scattered clouds
119,Altamira,BR,-3.2033,-52.2064,77.09,94,100,5.75,heavy intensity rain
120,San Cristobal,VE,7.7669,-72.225,77.18,48,16,6.96,few clouds
121,Bridlington,GB,54.0831,-0.1919,44.89,96,100,3.0,overcast clouds
122,Asfi,MA,32.2994,-9.2372,65.08,80,8,12.77,clear sky
123,Buraydah,SA,26.326,43.975,66.65,33,100,7.92,overcast clouds
124,Nabire,ID,-3.3667,135.4833,77.63,87,99,2.26,overcast clouds
125,Qaqortoq,GL,60.7167,-46.0333,10.38,65,0,8.19,clear sky
126,Nanortalik,GL,60.1432,-45.2371,22.15,62,0,5.14,clear sky
127,Dikson,RU,73.5069,80.5464,-7.56,95,100,8.57,overcast clouds
128,Aksu,CN,41.1231,80.2644,21.02,51,28,0.47,scattered clouds
129,Yurty,RU,56.0498,97.6348,11.95,79,75,11.05,broken clouds
130,Sola,VU,-13.8833,167.55,83.12,71,71,13.0,broken clouds
131,Pedernales,DO,18.0384,-71.744,83.7,56,0,4.63,clear sky
132,Warmbad,NA,-28.45,18.7333,89.74,21,4,17.54,clear sky
133,Ribeira Grande,PT,38.5167,-28.7,63.0,63,20,24.16,few clouds
134,Neryungri,RU,56.6709,124.6491,-33.77,99,52,1.77,broken clouds
135,Broome,US,42.2506,-75.833,34.02,83,100,9.22,snow
136,Maniitsoq,GL,65.4167,-52.9,17.33,67,16,4.72,few clouds
137,Codrington,AU,-38.2667,141.9667,55.85,96,2,3.94,clear sky
138,Waddan,LY,29.1614,16.139,59.59,53,32,7.43,scattered clouds
139,Abu Dhabi,AE,24.4667,54.3667,73.42,58,0,3.44,clear sky
140,Pasco,US,28.292,-82.4165,69.96,86,98,3.02,overcast clouds
141,Bilma,NE,18.6853,12.9164,64.33,31,41,11.18,scattered clouds
142,Rawah,IQ,34.4816,41.9093,55.96,66,77,7.25,broken clouds
143,Westport,US,41.1415,-73.3579,46.89,77,100,13.0,overcast clouds
144,Wonopringgo,ID,-6.9833,109.6167,76.1,92,100,4.59,overcast clouds
145,Sambava,MG,-14.2667,50.1667,78.03,89,98,2.26,moderate rain
146,Jiuquan,CN,39.7432,98.5174,17.64,65,0,4.05,clear sky
147,Marystown,CA,47.1666,-55.1483,33.87,69,51,12.53,broken clouds
148,Bredasdorp,ZA,-34.5322,20.0403,68.29,74,22,8.12,few clouds
149,Tuatapere,NZ,-46.1333,167.6833,52.39,94,62,1.59,broken clouds
150,Balykshi,KZ,47.0667,51.8667,24.8,80,1,13.42,mist
151,Luderitz,NA,-26.6481,15.1594,67.21,85,1,13.13,clear sky
152,East London,ZA,-33.0153,27.9116,76.14,73,0,13.8,clear sky
153,Haines Junction,CA,60.7522,-137.5108,-27.45,75,100,1.14,overcast clouds
154,Hailar,CN,49.2,119.7,-30.77,98,10,1.63,clear sky
155,Neuquen,AR,-38.9516,-68.0591,89.49,20,0,9.22,clear sky
156,Lasa,IT,46.6166,10.7002,32.02,74,31,4.61,scattered clouds
157,Yumen,CN,40.2833,97.2,16.45,60,2,3.58,clear sky
158,Zhenlai,CN,45.8495,123.2973,0.99,64,91,15.84,overcast clouds
159,Khatanga,RU,71.9667,102.5,-23.94,91,22,3.22,few clouds
160,Aklavik,CA,68.2191,-135.0107,3.2,78,100,12.66,light snow
161,Poum,NC,-20.2333,164.0167,79.99,78,10,10.92,clear sky
162,Washington,US,47.5001,-120.5015,5.32,69,80,1.16,broken clouds
163,Hollins,US,37.3413,-79.9431,39.88,95,100,11.5,mist
164,Mahebourg,MU,-20.4081,57.7,76.24,78,20,3.44,few clouds
165,Paralimni,CY,35.0375,33.9833,62.15,69,0,4.0,clear sky
166,Labuhan,ID,-6.8844,112.2051,78.57,83,100,11.77,light rain
167,Teknaf,BD,20.8624,92.3058,64.71,78,55,7.58,broken clouds
168,Kupino,RU,54.3663,77.2981,-21.73,100,50,5.08,scattered clouds
169,Makakilo City,US,21.3469,-158.0858,70.45,82,40,0.0,light rain
170,Yatou,CN,37.15,122.3833,22.19,83,100,21.03,light snow
171,Bluff,NZ,-46.6,168.3333,56.8,90,98,4.43,overcast clouds
172,Torre Del Greco,IT,40.7839,14.3708,57.76,86,75,3.44,broken clouds
173,Vuktyl,RU,63.8567,57.3094,14.86,94,100,9.04,light snow
174,Lompoc,US,34.6391,-120.4579,64.78,68,100,1.99,overcast clouds
175,Umm Lajj,SA,25.0213,37.2685,75.06,60,100,10.11,overcast clouds
176,Wageningen,NL,51.9667,5.6667,48.94,95,100,6.91,mist
177,Thompson,CA,55.7435,-97.8558,-7.44,71,75,11.5,light snow
178,Olinda,BR,-8.0089,-34.8553,83.93,65,40,12.66,scattered clouds
179,Broken Hill,AU,-31.95,141.4333,69.6,47,100,15.17,overcast clouds
180,Torbay,CA,47.6666,-52.7314,32.58,68,75,20.71,broken clouds
181,Victoria,HK,22.2855,114.1577,64.26,40,3,8.99,clear sky
182,Arraial Do Cabo,BR,-22.9661,-42.0278,78.76,69,40,12.66,scattered clouds
183,Mar Del Plata,AR,-38.0023,-57.5575,86.83,80,40,31.0,scattered clouds
184,Leningradskiy,RU,69.3833,178.4167,5.27,70,1,3.42,clear sky
185,Amahai,ID,-3.3333,128.9167,78.87,78,81,3.47,broken clouds
186,Cape Town,ZA,-33.9258,18.4232,71.89,71,0,16.11,clear sky
187,Dunedin,NZ,-45.8742,170.5036,56.8,90,99,4.0,overcast clouds
188,Savonlinna,FI,61.8699,28.88,35.65,93,100,11.5,overcast clouds
189,Clyde River,CA,70.4692,-68.5914,-16.37,76,20,9.22,few clouds
190,Sawakin,SD,19.1059,37.3321,80.42,75,17,4.34,few clouds
191,Shimoda,JP,34.6667,138.95,39.11,65,34,28.05,scattered clouds
192,Pacific Grove,US,36.6177,-121.9166,57.67,82,100,9.13,overcast clouds
193,Wick,GB,58.4333,-3.0833,41.05,87,75,23.02,broken clouds
194,Buin,CL,-33.7333,-70.75,87.42,19,2,11.07,clear sky
195,Outram,MY,1.2829,103.8379,77.18,88,75,8.05,broken clouds
196,Norman Wells,CA,65.282,-126.8329,-23.76,69,75,5.75,light snow
197,Severo-Kurilsk,RU,50.6789,156.125,31.66,80,100,7.87,overcast clouds
198,La Ronge,CA,55.1001,-105.2842,-14.55,70,75,9.22,broken clouds
199,Escanaba,US,45.7453,-87.0646,31.96,93,100,4.0,mist
200,Tuktoyaktuk,CA,69.4541,-133.0374,-5.8,77,75,9.22,broken clouds
201,Bathsheba,BB,13.2167,-59.5167,84.06,77,9,19.37,clear sky
202,Divisoria,PH,17.5208,121.7756,66.34,93,100,11.27,overcast clouds
203,Eyl,SO,7.9803,49.8164,76.68,84,9,16.82,clear sky
204,Surt,LY,31.2089,16.5887,64.44,66,86,16.93,overcast clouds
205,Porto Murtinho,BR,-21.6989,-57.8825,101.59,23,0,0.22,clear sky
206,Sao Filipe,CV,14.8961,-24.4956,77.63,59,0,9.62,clear sky
207,Katsuura,JP,35.1333,140.3,46.51,59,4,22.62,clear sky
208,Muros,ES,42.7762,-9.0603,60.15,93,98,19.82,overcast clouds
209,Kologriv,RU,58.8275,44.3178,33.22,96,100,9.89,overcast clouds
210,Enumclaw,US,47.2043,-121.9915,21.11,55,100,15.99,overcast clouds
211,Casambalangan,PH,18.3765,122.1274,69.6,80,100,13.89,overcast clouds
212,Korla,CN,41.7597,86.1469,23.04,41,74,2.21,broken clouds
213,Manokwari,ID,-0.8667,134.0833,78.73,82,100,2.73,overcast clouds
214,Egvekinot,RU,66.3167,-179.1667,7.09,57,0,16.17,clear sky
215,Tortoli,IT,39.9256,9.6572,57.07,71,29,7.29,scattered clouds
216,Aksum,ET,14.1245,38.7244,65.66,34,60,9.42,broken clouds
217,Akyab,MM,20.15,92.9,69.67,72,98,8.55,overcast clouds
218,Ternate,ID,0.8,127.4,81.63,81,30,6.42,scattered clouds
219,Faanui,PF,-16.4833,-151.75,80.46,77,99,19.44,overcast clouds
220,Saint-Francois,FR,46.4154,3.9054,51.24,93,75,12.66,light rain
221,Mookane,BW,-23.688,26.6595,74.89,40,0,6.82,clear sky
222,Namibe,AO,-15.1961,12.1522,69.03,76,96,12.08,overcast clouds
223,Asilah,MA,35.465,-6.0348,62.56,79,4,8.43,clear sky
224,Kindu,CD,-2.95,25.95,69.35,97,100,1.36,overcast clouds
225,Alepe,CI,5.5004,-3.6631,84.07,64,31,6.73,scattered clouds
226,Corn Island,NI,12.1694,-83.0418,80.73,73,55,18.03,broken clouds
227,Kinkala,CG,-4.3614,14.7644,71.04,94,97,1.39,overcast clouds
228,Nome,US,64.5011,-165.4064,10.54,60,0,10.98,clear sky
229,Berlevag,NO,70.8578,29.0864,26.6,74,0,10.36,clear sky
230,Avanigadda,IN,16.0215,80.9181,69.94,77,83,4.92,broken clouds
231,Saldanha,ZA,-33.0117,17.9442,65.37,87,39,9.78,scattered clouds
232,Strezhevoy,RU,60.7333,77.5889,-19.5,98,60,6.24,broken clouds
233,Mahibadhoo,MV,3.7833,72.9667,79.99,75,100,3.65,overcast clouds
234,Muisne,EC,0.6,-80.0333,78.24,78,91,9.28,overcast clouds
235,Gizo,SB,-8.103,156.8419,81.57,80,93,4.79,moderate rain
236,Alofi,NU,-19.0595,-169.9187,79.83,75,13,15.68,few clouds
237,Marawi,PH,7.9986,124.2928,68.79,95,80,1.66,moderate rain
238,Stephenville,US,32.2207,-98.2023,18.77,79,100,24.16,overcast clouds
239,Gamba,GA,-2.65,10.0,77.63,84,98,5.44,overcast clouds
240,Minab,IR,27.1467,57.0801,69.12,44,6,2.35,clear sky
241,Ahipara,NZ,-35.1667,173.1667,60.87,90,17,4.5,few clouds
242,South Sioux City,US,42.4739,-96.4136,-11.25,68,100,28.77,haze
243,San Esteban,HN,15.2,-85.75,79.86,60,27,3.11,scattered clouds
244,Abay,KZ,49.6311,72.8539,1.78,98,100,6.17,overcast clouds
245,Cabo San Lucas,MX,22.8909,-109.9124,76.51,64,0,4.0,clear sky
246,Burnie,AU,-41.0667,145.9167,51.94,80,8,4.76,clear sky
247,College,US,64.8569,-147.8028,-23.69,96,5,2.89,clear sky
248,Fort Nelson,CA,58.8053,-122.7002,-18.45,89,100,1.92,overcast clouds
249,Jirikov,CZ,50.9951,14.5691,47.05,96,100,6.78,overcast clouds
250,Pisco,PE,-13.7,-76.2167,72.01,80,44,9.44,scattered clouds
251,Olafsvik,IS,64.8945,-23.7142,28.99,65,62,17.54,broken clouds
252,Ouesso,CG,1.6136,16.0517,79.0,57,89,2.53,overcast clouds
253,Sisimiut,GL,66.9395,-53.6735,12.6,62,13,10.63,few clouds
254,Qaanaaq,GL,77.484,-69.3632,-19.93,68,0,6.78,clear sky
255,Yashkul,RU,46.1711,45.3435,37.62,87,31,5.93,scattered clouds
256,Smithers,CA,54.7804,-127.1743,-3.95,82,100,3.36,overcast clouds
257,Meghraj,IN,23.5,73.5,67.26,23,0,5.68,clear sky
258,Griffith,US,41.5284,-87.4237,34.29,81,100,6.91,light snow
259,Antalaha,MG,-14.9003,50.2788,75.9,95,100,7.25,heavy intensity rain
260,Luebo,CD,-5.35,21.4167,70.2,87,92,0.51,overcast clouds
261,Hambantota,LK,6.1241,81.1185,77.36,85,86,4.52,overcast clouds
262,Erattupetta,IN,9.7,76.7833,74.03,90,100,2.04,overcast clouds
263,Kaitangata,NZ,-46.2817,169.8464,50.85,94,48,2.39,scattered clouds
264,Hohhot,CN,40.8106,111.6522,-0.11,65,0,6.71,clear sky
265,Marrakesh,MA,31.6315,-8.0083,71.67,40,0,6.91,clear sky
266,Solnechnyy,RU,50.7214,136.6319,10.26,91,83,11.45,light snow
267,Sinop,TR,41.7711,34.8709,41.74,68,0,7.87,clear sky
268,Kashan,IR,33.9831,51.4364,44.78,47,74,2.26,broken clouds
269,Yeppoon,AU,-23.1333,150.7333,65.98,72,96,8.1,overcast clouds
270,Port Lincoln,AU,-34.7333,135.8667,59.45,88,45,10.13,scattered clouds
271,Bethel,US,41.3712,-73.414,41.36,77,100,1.99,overcast clouds
272,Anloga,GH,5.7947,0.8973,81.7,74,64,11.23,broken clouds
273,Sampit,ID,-2.5333,112.95,74.86,97,98,4.09,overcast clouds
274,Petropavlovsk-Kamchatskiy,RU,53.0452,158.6483,23.92,76,100,10.33,overcast clouds
275,Yulara,AU,-25.2406,130.9889,67.77,82,87,11.27,overcast clouds
276,Kamaishi,JP,39.2667,141.8833,40.6,62,69,23.87,broken clouds
277,Half Moon Bay,US,37.4636,-122.4286,54.18,82,75,5.75,broken clouds
278,Beckley,US,37.7782,-81.1882,42.67,94,100,11.5,overcast clouds
279,Garissa,KE,-0.4536,39.6401,86.41,49,98,4.9,overcast clouds
280,Konan,JP,35.3317,136.8704,37.94,48,80,11.83,broken clouds
281,Sao Joao Da Barra,BR,-21.6403,-41.0511,75.52,79,57,17.25,broken clouds
282,Little Chute,US,44.28,-88.3184,13.8,81,100,13.8,snow
283,Coquimbo,CL,-29.9533,-71.3436,70.11,59,0,12.01,clear sky
284,Tahta,EG,26.7693,31.5021,58.55,48,1,8.3,clear sky
285,North Platte,US,41.1239,-100.7654,-6.88,61,26,24.0,scattered clouds
286,Letterkenny,IE,54.95,-7.7333,42.69,95,100,4.65,overcast clouds
287,Show Low,US,34.2542,-110.0298,51.08,24,0,0.0,clear sky
288,Maturin,VE,9.75,-63.1767,87.64,74,62,11.5,broken clouds
289,Zhezkazgan,KZ,47.8043,67.7144,4.21,100,58,1.77,broken clouds
290,San Quintin,MX,30.4833,-115.95,65.64,39,16,2.42,few clouds
291,Lata,PT,40.1629,-8.3327,60.08,93,99,3.49,overcast clouds
292,Primorsk,UA,46.7348,36.3443,41.54,91,100,8.46,overcast clouds
293,Rio Grande,BR,-32.035,-52.0986,75.22,56,14,15.95,few clouds
294,Longyearbyen,SJ,78.2186,15.6401,22.84,63,75,18.41,broken clouds
295,Hushitai,CN,41.9322,123.5114,1.31,70,99,10.54,overcast clouds
296,Brae,GB,60.3964,-1.353,39.18,61,94,19.95,overcast clouds
297,Mount Isa,AU,-20.7333,139.5,82.17,61,100,5.75,light rain
298,Hervey Bay,AU,-25.2986,152.8535,70.99,67,98,5.5,overcast clouds
299,Touros,BR,-5.1989,-35.4608,84.7,59,24,11.63,few clouds
300,Mayo,US,38.8876,-76.5119,42.94,92,100,10.36,moderate rain
301,Along,IN,28.1667,94.7667,53.02,91,59,1.77,broken clouds
302,Kamenka,RU,51.3223,42.7678,33.82,85,100,11.77,light snow
303,Sao Sebastiao,BR,-23.76,-45.4097,71.02,89,93,5.61,overcast clouds
304,Chongwe,ZM,-15.3292,28.682,64.33,94,98,7.72,overcast clouds
305,Byron Bay,AU,-28.65,153.6167,64.94,83,85,8.93,overcast clouds
306,Murmashi,RU,68.8154,32.8115,18.01,100,75,7.0,broken clouds
307,Zhigansk,RU,66.7697,123.3711,-37.86,99,73,1.9,broken clouds
308,Kostomuksha,RU,64.571,30.5767,27.68,98,99,3.67,light snow
309,Ondangwa,NA,-17.9167,15.95,81.5,39,97,6.82,light rain
310,Muhos,FI,64.808,25.9931,30.88,94,100,6.71,overcast clouds
311,Snezhnogorsk,RU,69.1933,33.2531,17.38,92,100,9.8,overcast clouds
312,Todos Santos,MX,23.45,-110.2167,73.65,58,0,4.83,clear sky
313,Kailua,US,21.4022,-157.7394,71.91,87,0,9.28,clear sky
314,Vardo,NO,70.3705,31.1107,28.38,86,75,23.02,broken clouds
315,Imeni Stepana Razina,RU,54.8932,44.2963,32.14,98,100,11.68,light snow
316,Ca Mau,VN,9.1769,105.15,73.8,91,86,4.05,overcast clouds
317,Mbala,ZM,-8.8402,31.3659,59.61,92,95,1.05,overcast clouds
318,Billings,US,45.7833,-108.5007,-10.5,63,21,11.99,few clouds
319,San Joaquin,US,37.9333,-121.3011,43.29,87,100,4.61,mist
320,Caravelas,BR,-17.7125,-39.2481,76.06,87,100,10.04,overcast clouds
321,Paita,PE,-5.0892,-81.1144,76.5,70,56,14.45,broken clouds
322,Port Lavaca,US,28.615,-96.6261,66.97,88,40,4.61,scattered clouds
323,Singleton,AU,-32.5667,151.1833,61.99,88,100,2.3,overcast clouds
324,Erenhot,CN,43.6475,111.9767,3.79,66,30,4.97,scattered clouds
325,Balta,UA,47.9355,29.6198,35.49,81,100,7.2,overcast clouds
326,Lamu,KE,-2.2717,40.902,79.2,84,91,14.81,overcast clouds
327,Alta Floresta,BR,-9.8756,-56.0861,77.63,91,100,4.81,overcast clouds
328,Luan,CH,46.3592,6.9759,43.61,95,100,5.73,overcast clouds
329,Guaymas,MX,27.9333,-110.9,65.88,29,0,1.81,clear sky
330,Grindavik,IS,63.8424,-22.4338,25.27,63,75,16.11,broken clouds
331,Comodoro Rivadavia,AR,-45.8667,-67.5,71.73,20,99,36.71,overcast clouds
332,Ostrovnoy,RU,68.0531,39.5131,19.15,90,100,5.79,overcast clouds
333,Newport,GB,51.5877,-2.9984,51.06,94,100,8.68,overcast clouds
334,Miramar,US,25.9873,-80.2323,86.02,65,0,11.5,clear sky
335,Boksitogorsk,RU,59.474,33.8485,32.61,94,100,9.28,overcast clouds
336,Hualmay,PE,-11.0964,-77.6139,75.56,70,32,12.62,scattered clouds
337,Kassala,SD,15.451,36.4,82.94,23,9,9.37,clear sky
338,Pontianak,ID,-0.0333,109.3333,75.18,100,100,8.05,overcast clouds
339,Frederick,US,39.4668,-77.3997,40.82,95,100,10.36,light rain
340,Micheweni,TZ,-4.9667,39.8333,81.3,79,75,12.3,broken clouds
341,Kisarawe,TZ,-6.9,39.0667,74.82,90,100,4.79,light rain
342,Pucallpa,PE,-8.3791,-74.5539,95.41,37,60,3.22,broken clouds
343,Mangrol,IN,21.1167,70.1167,70.14,35,0,11.65,clear sky
344,Saint John,CA,45.2727,-66.0677,32.0,74,75,6.91,broken clouds
345,Wairoa,NZ,-39.0333,177.3667,54.55,99,12,1.99,few clouds
346,Gornopravdinsk,RU,60.05,69.9,5.67,89,99,12.77,overcast clouds
347,Shenjiamen,CN,29.9576,122.298,37.56,45,0,27.51,clear sky
348,Barcelona,ES,41.3888,2.159,63.91,70,20,6.91,few clouds
349,Labuan,MY,5.2767,115.2417,80.47,78,95,12.95,light rain
350,Raisinghnagar,IN,29.5358,73.4492,56.52,29,0,4.54,clear sky
351,Alugan,PH,12.2188,125.4808,78.15,87,89,5.12,overcast clouds
352,Teluknaga,ID,-6.0989,106.6381,83.62,94,40,9.22,light rain
353,Ulaangom,MN,49.9811,92.0667,-3.6,88,94,1.77,overcast clouds
354,Biograd Na Moru,HR,43.9433,15.4519,55.76,82,95,6.17,overcast clouds
355,Realeza,BR,-25.7689,-53.5325,85.5,37,20,3.76,few clouds
356,Samarai,PG,-10.6167,150.6667,82.87,79,94,9.08,overcast clouds
357,Lakatoro,VU,-16.0999,167.4164,81.23,79,87,7.76,overcast clouds
358,Colares,PT,38.7992,-9.4469,64.76,88,75,30.0,broken clouds
359,Hasaki,JP,35.7333,140.8333,45.0,44,27,27.38,scattered clouds
360,Qostanay,KZ,53.1667,63.5833,-0.11,85,0,13.42,clear sky
361,Rorvik,NO,64.8621,11.2373,24.91,93,22,0.0,mist
362,Kamina,CD,-8.7386,24.9906,62.37,98,100,3.47,overcast clouds
363,Saint-Leu,RE,-21.15,55.2833,77.86,75,93,7.52,overcast clouds
364,Tacna,PE,-18.0056,-70.2483,77.32,53,61,13.96,broken clouds
365,Novo Aripuana,BR,-5.1206,-60.3797,91.54,46,92,3.51,overcast clouds
366,Ovalle,CL,-30.5983,-71.2003,88.27,21,0,12.33,clear sky
367,Castleisland,IE,52.2333,-9.4667,41.59,95,39,2.93,scattered clouds
368,Christiansburg,US,37.1298,-80.4089,37.74,93,100,8.05,light snow
369,Tutoia,BR,-2.7619,-42.2744,83.21,70,83,11.74,broken clouds
370,Vanimo,PG,-2.6741,141.3028,77.99,90,100,5.3,overcast clouds
371,Troitsko-Pechorsk,RU,62.7084,56.1964,19.24,95,100,8.93,light snow
372,Nantucket,US,41.2835,-70.0995,45.09,83,100,12.91,overcast clouds
373,Celestun,MX,20.8667,-90.4,79.95,69,16,7.09,few clouds
374,Flinders,AU,-34.5833,150.8552,62.19,90,93,4.0,overcast clouds
375,Bima,ID,-8.4667,118.7167,76.93,94,100,2.95,overcast clouds
376,Horsham,GB,51.064,-0.3272,52.11,90,75,8.05,broken clouds
377,Loreto,MX,22.2667,-101.9667,66.92,29,51,8.59,broken clouds
378,Tsabong,BW,-26.0217,22.401,86.61,27,5,11.95,clear sky
379,Bandarbeyla,SO,9.4942,50.8122,77.36,80,34,15.7,scattered clouds
380,Gidrotorf,RU,56.4744,43.5414,33.78,99,100,9.8,overcast clouds
381,Taoudenni,ML,22.6783,-3.9836,71.74,22,0,11.21,clear sky
382,Port Augusta,AU,-32.5,137.7667,67.69,60,88,11.34,overcast clouds
383,Krasnogorsk,RU,55.8225,37.3181,34.05,93,100,8.95,overcast clouds
384,Saint Anthony,US,45.0205,-93.218,-3.33,72,100,5.01,overcast clouds
385,Abu Kamal,SY,34.4506,40.9171,54.61,74,32,6.73,scattered clouds
386,Sorland,NO,67.667,12.6934,37.26,58,100,30.06,overcast clouds
387,Monrovia,LR,6.3005,-10.7969,81.64,67,75,9.22,broken clouds
388,Mandera,KE,3.9366,41.867,90.0,30,81,9.57,broken clouds
389,Gijon,ES,43.5357,-5.6615,67.46,79,100,7.0,overcast clouds
390,Chuguyevka,RU,44.1653,133.8633,1.96,98,100,5.28,light snow
391,Paracatu,BR,-17.2222,-46.8747,83.46,51,24,0.67,few clouds
392,Kahului,US,20.8947,-156.47,72.84,73,20,8.05,few clouds
393,Ranong,TH,9.9658,98.6348,73.98,92,22,4.7,few clouds
394,Senneterre,CA,48.3835,-77.2328,19.2,84,100,9.28,overcast clouds
395,Bar Harbor,US,44.3876,-68.2039,37.35,69,0,5.75,clear sky
396,Zilair,RU,52.2332,57.4392,18.25,95,100,12.24,light snow
397,Neepawa,CA,50.2289,-99.4664,-7.2,85,100,16.11,overcast clouds
398,Flin Flon,CA,54.7682,-101.865,-5.4,84,100,13.96,overcast clouds
399,Christchurch,NZ,-43.5333,172.6333,58.91,88,99,4.61,overcast clouds
400,Chicama,PE,-7.8447,-79.1469,73.94,60,56,12.24,broken clouds
401,Sitka,US,57.0531,-135.33,31.89,47,75,0.0,broken clouds
402,Jiblah,YE,13.9216,44.1467,58.39,73,55,2.42,broken clouds
403,Bongaree,AU,-27.0797,153.1586,66.4,80,96,7.23,overcast clouds
404,Mongoumba,CF,3.6415,18.5936,78.17,27,49,2.59,scattered clouds
405,Vila Franca Do Campo,PT,37.7167,-25.4333,64.2,87,100,14.41,overcast clouds
406,Shellbrook,CA,53.2168,-106.4011,-7.06,91,99,11.1,overcast clouds
407,Melfort,CA,52.8667,-104.6177,-4.95,87,100,13.02,overcast clouds
408,Verkhoyansk,RU,67.5447,133.385,-24.18,100,63,1.19,broken clouds
409,Williston,US,48.147,-103.618,-14.19,91,100,19.35,overcast clouds
410,Bonavista,CA,48.6499,-53.1147,31.37,67,98,15.86,overcast clouds
411,Inirida,CO,3.8653,-67.9239,86.52,64,56,2.66,broken clouds
412,Porto-Vecchio,FR,41.591,9.2795,58.66,77,75,16.11,broken clouds
413,Merauke,ID,-8.4667,140.3333,79.14,87,100,4.97,overcast clouds
414,Point Fortin,TT,10.1833,-61.6833,86.9,63,97,13.78,overcast clouds
415,Karlshamn,SE,56.1706,14.8619,39.69,88,100,11.34,overcast clouds
416,Chifeng,CN,42.2683,118.9636,4.01,37,8,12.8,clear sky
417,Miles City,US,46.4083,-105.8406,-13.83,64,0,18.41,clear sky
418,Cozumel,MX,20.5083,-86.9458,82.94,74,75,8.05,light rain
419,Hope,US,33.6671,-93.5916,46.45,81,47,7.38,scattered clouds
420,Mizan Teferi,ET,6.9833,35.5833,64.02,70,78,2.21,broken clouds
421,Soroca,MD,48.1558,28.2975,31.41,64,100,2.46,overcast clouds
422,Itarema,BR,-2.9248,-39.9167,84.7,63,75,13.18,broken clouds
423,Port Hardy,CA,50.6996,-127.4199,28.69,49,100,20.22,overcast clouds
424,George,ZA,-33.963,22.4617,69.15,80,1,7.61,clear sky
425,Makat,KZ,47.6469,53.3463,25.02,76,5,10.16,clear sky
426,Salalah,OM,17.0151,54.0924,71.69,94,100,10.36,moderate rain
427,Matara,LK,5.9485,80.5353,75.74,91,76,4.65,broken clouds
428,Itacoatiara,BR,-3.1431,-58.4442,83.77,66,98,2.89,overcast clouds
429,Churapcha,RU,62.0025,132.4325,-17.12,97,100,2.95,overcast clouds
430,Menongue,AO,-14.6585,17.691,62.94,91,96,4.83,light rain
431,Stornoway,GB,58.2093,-6.3865,44.56,85,75,23.02,broken clouds
432,Maceio,BR,-9.6658,-35.7353,89.04,62,20,16.11,few clouds
433,Pochutla,MX,15.7432,-96.4661,87.82,46,3,6.53,clear sky
434,Concordia,AR,-31.393,-58.0209,95.07,32,75,8.99,broken clouds
435,Kambove,CD,-10.8764,26.5969,60.4,99,98,2.77,overcast clouds
436,Padang,ID,-0.9492,100.3543,78.42,77,99,4.23,overcast clouds
437,Ware,GB,51.8126,-0.0283,53.02,94,100,8.05,drizzle
438,Lokosovo,RU,61.1333,74.8167,-10.95,88,38,9.75,scattered clouds
439,Ormara,PK,25.2088,64.6357,70.07,37,0,10.8,clear sky
440,Mapua,NZ,-41.25,173.1,61.02,78,95,3.15,light rain
441,Nuuk,GL,64.1835,-51.7216,20.01,49,0,1.14,clear sky
442,Sao Felix Do Xingu,BR,-6.6447,-51.995,70.72,99,100,1.83,overcast clouds
443,Guinguineo,SN,14.2667,-15.95,88.56,10,0,7.87,clear sky
444,Ixtapa,MX,20.7,-105.2,78.03,53,0,0.0,clear sky
445,Sibolga,ID,1.7427,98.7792,76.84,80,100,2.89,overcast clouds
446,Jamame,SO,0.0722,42.7506,78.46,84,84,12.44,broken clouds
447,Khorixas,NA,-20.3667,14.9667,78.01,33,28,18.28,scattered clouds
448,Cayenne,GF,4.9333,-52.3333,84.24,65,75,11.5,broken clouds
449,Kununurra,AU,-15.7667,128.7333,76.98,100,75,5.75,light rain
450,Saint-Joseph,RE,-21.3667,55.6167,77.38,79,98,6.26,overcast clouds
451,Lesozavodsk,RU,45.4794,133.4244,11.79,95,100,8.86,light snow
452,Provideniya,RU,64.3833,-173.3,15.46,60,1,23.04,clear sky
453,Mayumba,GA,-3.432,10.6554,76.98,86,100,5.21,light rain
454,Hobyo,SO,5.3505,48.5268,78.6,75,19,15.57,few clouds
455,Belokurikha,RU,51.9959,84.9896,6.53,96,99,3.76,overcast clouds
456,Koumac,NC,-20.5667,164.2833,77.68,82,7,1.7,clear sky
457,Trelew,AR,-43.249,-65.3051,84.47,26,28,33.62,scattered clouds
458,Srednekolymsk,RU,67.45,153.6833,-16.55,92,4,3.24,clear sky
459,Yamada,JP,39.4667,141.95,38.52,69,83,23.15,broken clouds
460,Nambucca Heads,AU,-30.65,153.0,68.0,88,100,4.25,overcast clouds
461,Pedasi,PA,7.5333,-80.0333,81.59,76,93,12.53,light rain
462,Athabasca,CA,54.7169,-113.2854,-22.67,97,25,3.91,scattered clouds
463,Hofn,IS,64.2539,-15.2082,25.75,64,2,17.92,clear sky
464,Lincoln,US,40.8,-96.667,-6.0,72,100,26.46,overcast clouds
465,Naryan-Mar,RU,67.6713,53.087,-9.0,99,46,5.61,scattered clouds
466,Pangody,RU,65.85,74.4859,-11.18,91,9,11.01,clear sky
467,Camacupa,AO,-12.0167,17.4833,62.65,93,100,1.88,light rain
468,Berdigestyakh,RU,62.0989,126.6992,-26.14,99,84,1.95,broken clouds
469,Timra,SE,62.487,17.3257,10.08,92,0,1.14,clear sky
470,Oussouye,SN,12.485,-16.5469,87.15,24,82,4.99,broken clouds
471,San Francisco,US,37.7749,-122.4194,53.67,78,75,11.01,broken clouds
472,Arman,RU,59.7,150.1667,2.53,75,5,11.68,clear sky
473,Ust-Karsk,RU,52.7011,118.8077,-27.72,100,12,1.41,few clouds
474,Wanning,CN,18.8003,110.3967,61.57,73,93,6.06,overcast clouds
475,Aksha,RU,50.2814,113.2867,-13.25,97,15,1.92,few clouds
476,Inhambane,MZ,-23.865,35.3833,73.56,74,10,12.46,clear sky
477,Matamoros,MX,25.5333,-103.25,66.31,30,0,0.0,clear sky
478,Ballina,AU,-28.8667,153.5667,65.01,93,69,7.38,broken clouds
479,Meulaboh,ID,4.1363,96.1285,77.97,82,90,3.11,overcast clouds
480,Isangel,VU,-19.55,169.2667,79.3,81,57,10.27,broken clouds
481,Sechura,PE,-5.5569,-80.8222,81.91,57,38,14.07,scattered clouds
482,Port Keats,AU,-14.25,129.55,76.86,95,100,19.35,heavy intensity rain
483,Varnavino,RU,57.4035,45.0916,33.15,97,100,10.22,overcast clouds
484,Piacabucu,BR,-10.4056,-36.4344,84.29,66,32,18.01,scattered clouds
485,Notse,TG,6.95,1.1667,87.22,27,90,1.68,overcast clouds
486,Borujerd,IR,33.8973,48.7516,40.57,81,97,0.6,overcast clouds
487,Kirakira,SB,-10.4544,161.9205,80.65,83,100,7.16,overcast clouds
488,Deputatskiy,RU,69.3,139.9,-15.45,100,63,0.83,broken clouds
489,Diamantina,BR,-18.2494,-43.6003,70.74,73,100,2.04,overcast clouds
490,Jacareacanga,BR,-6.2222,-57.7528,77.79,81,100,0.6,overcast clouds
491,Riyadh,SA,24.6877,46.7219,66.34,23,98,10.16,overcast clouds
492,Bara,NG,10.3744,10.7288,70.66,26,9,8.08,clear sky
493,Anjar,IN,23.1333,70.0167,64.98,22,0,8.28,clear sky
494,Orgita,EE,58.9218,24.45,37.58,99,100,8.52,overcast clouds
495,Hegang,CN,47.4,130.3667,7.14,82,100,13.91,overcast clouds
496,Beloha,MG,-25.1667,45.05,68.92,79,65,13.02,light rain
497,Damaturu,NG,11.747,11.9608,68.49,27,18,8.63,few clouds
498,Elko,US,41.0002,-115.5012,36.05,64,100,3.22,overcast clouds
499,Danjiangkou,CN,32.5428,111.5086,36.93,36,43,1.72,scattered clouds
500,Kalamare,BW,-22.9337,26.5703,70.36,47,0,12.73,clear sky
501,Oriximina,BR,-1.7656,-55.8661,82.67,75,100,2.71,overcast clouds
502,Cheyenne,US,41.14,-104.8203,-4.23,65,0,25.99,clear sky
503,Ciudad Bolivar,VE,8.1222,-63.5497,85.28,49,89,10.4,overcast clouds
504,Nizwa,OM,22.9333,57.5333,67.6,44,70,1.97,broken clouds
505,Sandwick,GB,60.0,-1.25,37.22,70,20,16.11,few clouds
506,Guerrero Negro,MX,27.9769,-114.0611,67.06,31,0,1.79,clear sky
507,Miraflores,MX,19.2167,-98.8083,70.97,37,1,2.75,clear sky
508,Nishihara,JP,26.1842,127.7558,56.48,58,75,28.77,broken clouds
509,Severo-Yeniseyskiy,RU,60.3725,93.0408,-9.58,92,97,10.4,overcast clouds
510,Pemberton,CA,50.3164,-122.8027,2.97,75,99,2.3,overcast clouds
511,Laguna,US,38.421,-121.4238,46.38,89,100,4.61,mist
512,Panalingaan,PH,8.7842,117.4231,78.24,84,100,14.97,overcast clouds
513,Savannah Bight,HN,16.45,-85.85,79.38,74,5,12.03,clear sky
514,Gura Foii,RO,44.75,25.2833,33.96,63,100,4.34,overcast clouds
515,Jatai,BR,-17.8814,-51.7144,87.22,33,12,9.33,few clouds
516,Dillon,US,34.4166,-79.3712,52.14,92,100,12.06,overcast clouds
517,San Carlos De Bariloche,AR,-41.1456,-71.3082,59.25,44,40,25.32,light rain
518,Tessalit,ML,20.1986,1.0114,69.24,23,88,6.78,overcast clouds
519,Mpika,ZM,-11.8343,31.4529,61.05,97,93,3.15,overcast clouds
520,Rogers,US,36.3668,-95.5836,4.71,83,100,16.11,snow
521,Nagua,DO,19.3832,-69.8474,86.31,78,20,11.5,few clouds
522,Jiangkou,CN,25.4872,119.1986,51.22,61,2,7.56,clear sky
523,Kloulklubed,PW,7.0419,134.2556,82.76,74,62,4.45,broken clouds
524,Port Hedland,AU,-20.3167,118.5667,75.25,83,2,9.22,clear sky
525,Mandalgovi,MN,45.7625,106.2708,10.44,80,31,3.49,scattered clouds
526,Port Blair,IN,11.6667,92.75,80.64,78,20,2.3,mist
527,Rawlins,US,41.7911,-107.2387,-13.65,63,0,9.22,clear sky
528,Nguruka,TZ,-5.1092,31.0419,66.69,91,100,0.47,light rain
529,Fortuna,US,40.5982,-124.1573,54.93,95,40,5.75,scattered clouds
530,Airai,TL,-8.9266,125.4092,59.86,90,99,2.55,overcast clouds
531,Amurzet,RU,47.6967,131.0981,7.12,87,100,15.14,overcast clouds
532,Iquitos,PE,-3.7481,-73.2472,82.44,83,75,2.3,light rain
533,Saint-Pierre,RE,-21.3393,55.4781,78.48,65,0,2.3,clear sky
534,Zhongshan,CN,21.3226,110.5829,59.2,48,9,9.48,clear sky
535,Sovetskiy,RU,61.3614,63.5842,14.07,94,100,12.62,light snow
536,Alyangula,AU,-13.8483,136.4192,81.21,82,100,14.12,overcast clouds
537,Port-Cartier,CA,50.0334,-66.8654,21.74,73,5,6.98,clear sky
538,Tamboril,DO,19.4854,-70.611,84.97,58,20,12.66,few clouds
539,Cristobal Obregon,MX,16.35,-93.5333,82.06,47,31,2.21,scattered clouds
540,Najran,SA,17.4924,44.1277,64.33,32,0,3.36,clear sky
541,Hokitika,NZ,-42.7167,170.9667,57.51,81,88,3.36,overcast clouds
542,Nucsoara,RO,45.3333,24.7833,36.43,68,99,3.51,overcast clouds
543,Swan River,CA,52.1058,-101.2676,-2.61,86,100,13.18,overcast clouds
544,Tezu,IN,27.9167,96.1667,62.71,52,96,3.06,overcast clouds
545,Kyrylivka,UA,46.3759,35.3675,43.0,84,100,7.81,overcast clouds
546,Sur,OM,22.5667,59.5289,71.71,46,45,2.06,scattered clouds
547,Oros,BR,-6.2444,-38.9136,91.83,35,98,5.73,overcast clouds
548,Awbari,LY,26.5921,12.7805,56.35,44,0,6.29,clear sky
549,Marienburg,PL,54.0359,19.0266,41.9,98,100,8.63,light rain
550,San Rafael,AR,-34.6177,-68.3301,91.99,25,20,19.57,few clouds
551,Dalmatovo,RU,56.26,62.9362,10.9,81,100,17.05,overcast clouds
552,Mana,GF,5.6592,-53.7767,81.39,67,61,11.61,broken clouds
553,Qasigiannguit,GL,68.8193,-51.1922,7.05,73,5,4.45,clear sky
554,Yar-Sale,RU,66.8333,70.8333,-11.29,92,7,10.11,clear sky
555,Nirmal,IN,19.1,78.35,67.89,47,6,1.32,clear sky
556,Virginia Beach,US,36.8529,-75.978,58.01,93,100,11.5,moderate rain
557,Bloomfield,US,40.8068,-74.1854,44.65,88,100,13.8,moderate rain
558,Kyra,RU,49.5776,111.9753,-9.9,93,27,2.98,scattered clouds
559,Mackenzie,CA,55.2999,-123.1698,-22.49,97,87,0.29,overcast clouds
560,Millinocket,US,45.6573,-68.7098,27.41,86,0,4.61,clear sky
561,Tomatlan,MX,19.9333,-105.25,88.95,30,15,4.41,few clouds
562,Antofagasta,CL,-23.65,-70.4,70.88,65,5,13.56,clear sky
563,Ghatsila,IN,22.6,86.4833,62.56,29,47,2.8,scattered clouds
564,Plattsburgh,US,44.6995,-73.4529,39.15,78,0,11.5,clear sky
565,Hamilton,US,39.1834,-84.5333,44.24,94,100,6.91,mist
566,Ponta Delgada,PT,37.7333,-25.6667,64.51,88,40,18.41,scattered clouds
567,Ancud,CL,-41.8697,-73.8203,58.87,54,48,12.33,scattered clouds
568,Buala,SB,-8.145,159.5921,79.45,84,95,6.53,light rain
569,Dongsheng,CN,39.8161,109.9776,16.14,68,32,4.45,scattered clouds
570,Prainha,BR,-1.8,-53.48,82.8,72,93,2.8,moderate rain
571,Sept-Iles,CA,50.2001,-66.3821,22.05,74,8,5.01,clear sky
572,Lavrentiya,RU,65.5833,-171.0,13.46,81,1,15.05,clear sky
573,Novyye Burasy,RU,52.1324,46.0714,30.58,87,100,9.6,overcast clouds
574,Sistranda,NO,63.7256,8.834,30.16,46,61,7.11,broken clouds
575,Manggar,ID,-2.8833,108.2667,80.47,80,100,14.16,overcast clouds
576,Zhangjiakou,CN,40.81,114.8794,6.24,54,1,6.69,clear sky
577,Biak,ID,-0.9131,122.8766,76.82,79,67,1.99,broken clouds
578,Selikhino,RU,50.3672,137.4996,-0.29,97,95,9.57,overcast clouds
579,Dvinskoy,RU,62.1535,45.1175,33.21,97,100,9.73,light snow
580,Praia Da Vitoria,PT,38.7333,-27.0667,60.76,78,100,20.29,overcast clouds
581,Vostok,RU,46.4856,135.8833,16.52,63,100,14.03,overcast clouds
582,Nacala,MZ,-14.5428,40.6728,75.63,92,95,5.44,overcast clouds
583,Santo Domingo,DO,18.5001,-69.9886,85.64,78,75,11.5,broken clouds
584,Charyshskoye,RU,51.3978,83.5598,-4.34,94,92,4.7,overcast clouds
585,Necochea,AR,-38.5473,-58.7368,89.83,31,80,12.06,broken clouds
586,Toktogul,KG,41.8708,72.9402,24.42,90,100,1.01,overcast clouds
587,Gunnedah,AU,-30.9833,150.25,65.73,87,100,1.39,light rain
588,Dongying,CN,37.4564,118.4856,18.99,35,0,8.43,clear sky
589,Shaoyang,CN,27.2315,111.4525,46.06,33,98,2.93,overcast clouds
590,Khasan,RU,42.4308,130.6434,7.74,83,100,37.36,overcast clouds
591,Skjervoy,NO,70.0311,20.9714,19.4,65,98,8.9,overcast clouds
592,Eureka,US,40.8021,-124.1637,55.2,98,100,4.5,overcast clouds
593,Truth Or Consequences,US,33.1284,-107.2528,57.43,22,0,11.5,clear sky
594,Puerto Escondido,MX,15.85,-97.0667,83.23,61,20,5.75,few clouds
595,Mokrous,RU,51.2333,47.5167,30.06,83,99,14.25,overcast clouds
596,Tautira,PF,-17.7333,-149.15,79.68,81,85,17.36,light rain
597,Galveston,US,29.3669,-94.9669,66.02,83,75,5.75,broken clouds
598,Marevo,RU,57.3146,32.0804,34.29,99,100,6.91,overcast clouds
599,Grasse,FR,43.6667,6.9167,49.73,92,0,3.44,clear sky
600,Weiser,US,44.251,-116.9693,17.8,75,98,2.73,overcast clouds
601,Saint-Georges,GD,12.0564,-61.7485,83.88,70,20,23.02,few clouds
602,Kalmunai,LK,7.4167,81.8167,74.32,92,99,9.4,overcast clouds
603,Rychnov Nad Kneznou,CZ,50.1628,16.2749,45.25,94,98,7.49,overcast clouds
604,Totness,SR,5.8833,-56.3167,81.32,68,92,11.9,overcast clouds
605,Namatanai,PG,-3.6667,152.4333,78.53,83,73,4.38,light rain
606,Honiara,SB,-9.4333,159.95,78.13,87,97,5.1,overcast clouds
607,Kaiyuan,CN,23.6977,103.3037,47.43,94,16,3.96,few clouds
608,Arivonimamo,MG,-19.0167,47.1833,62.65,86,100,5.53,overcast clouds
609,Polunochnoye,RU,60.8697,60.4153,12.94,90,100,6.98,overcast clouds
610,Marshall,US,34.3834,-86.3333,49.08,84,99,1.99,overcast clouds
611,Ugoofaaru,MV,5.6667,73.0,80.73,75,99,2.91,overcast clouds
612,Dolzhanskaya,RU,46.6311,37.8039,41.43,85,90,8.88,overcast clouds
613,Tancanhuitz,MX,21.6,-98.9667,76.19,54,20,4.29,few clouds
614,Shevchenko,UA,48.5,35.0,38.28,69,100,8.48,overcast clouds
615,Colesberg,ZA,-30.72,25.0972,82.11,21,17,8.01,few clouds
616,Shirokiy,RU,49.758,129.523,3.52,87,100,13.11,overcast clouds
617,Kushima,JP,31.4583,131.2333,40.17,83,68,14.81,broken clouds
618,Constantine,DZ,36.365,6.6147,49.41,81,20,6.91,few clouds
619,Hami,CN,42.8,93.45,21.87,43,51,1.99,broken clouds
620,Dutse,NG,11.7594,9.3392,66.54,25,6,7.56,clear sky
621,Richards Bay,ZA,-28.783,32.0377,69.71,69,0,12.71,clear sky
622,Saint-Ambroise,CA,48.5501,-71.3324,11.57,68,88,3.29,overcast clouds
623,Toora-Khem,RU,52.4675,96.11,6.58,94,100,2.59,overcast clouds
624,Payo,ID,-3.7508,103.6372,73.62,97,100,2.04,moderate rain
625,Capaci,IT,38.1711,13.2393,59.25,81,0,4.61,clear sky
626,Mildura,AU,-34.2,142.15,58.06,83,100,10.8,overcast clouds
627,Constitucion,CL,-35.3333,-72.4167,67.82,74,17,11.81,few clouds
628,Acolla,PE,-11.7319,-75.5463,60.37,51,89,7.7,overcast clouds
629,Dhidhdhoo,MV,6.8833,73.1,81.12,75,87,6.4,overcast clouds
630,Rahatgarh,IN,23.7833,78.3667,64.62,51,0,7.2,clear sky
631,Havoysund,NO,70.9963,24.6622,25.03,91,100,8.93,light snow
632,Valparaiso,CL,-33.0393,-71.6273,82.63,41,0,17.27,clear sky
633,Garowe,SO,8.4054,48.4845,74.41,68,27,18.54,scattered clouds
634,Honningsvag,NO,70.9821,25.9704,24.55,86,100,6.91,snow
635,Southampton,GB,50.904,-1.4043,52.07,94,75,5.75,broken clouds
636,Tawau,MY,4.2498,117.8871,77.56,87,46,4.65,scattered clouds
637,Truro,GB,50.2653,-5.0544,51.08,100,75,14.97,drizzle
638,Daloa,CI,6.8774,-6.4502,82.26,26,19,4.12,few clouds
639,Omboue,GA,-1.5746,9.2618,78.64,81,73,7.27,broken clouds
640,Yevsino,RU,54.4172,83.3222,6.73,92,100,10.8,overcast clouds
641,Beruwala,LK,6.4788,79.9828,75.47,88,100,10.42,overcast clouds
642,Imeni Poliny Osipenko,RU,52.4201,136.4853,3.24,96,76,10.33,broken clouds
643,Lundazi,ZM,-12.2929,33.1782,63.93,96,100,5.64,light rain
644,Montepuez,MZ,-13.1256,38.9997,69.82,92,100,3.76,moderate rain
645,Ekhabi,RU,53.5102,142.9671,28.36,92,100,17.02,overcast clouds
646,San Patricio,US,28.017,-97.5169,64.26,65,31,7.05,scattered clouds
647,Borger,NL,52.9233,6.7931,45.79,92,85,7.2,light rain
648,Mazatan,MX,14.8667,-92.45,83.16,59,26,4.12,scattered clouds
649,Raufoss,NO,60.7264,10.6172,12.83,95,97,3.89,overcast clouds
650,Kholm,RU,59.2667,32.85,33.49,95,100,9.13,overcast clouds
651,Xichang,CN,27.8964,102.2634,45.97,94,95,0.69,overcast clouds
652,Susner,IN,23.95,76.0833,66.13,48,0,2.17,clear sky
653,Grand Gaube,MU,-20.0064,57.6608,76.37,68,100,9.35,overcast clouds
654,Killybegs,IE,54.6333,-8.45,38.91,87,100,7.45,overcast clouds
655,Arlit,NE,18.7369,7.3853,65.89,23,17,19.08,few clouds
656,Ta Khmau,KH,11.4833,104.95,77.05,78,20,2.3,few clouds
657,Thaba-Tseka,LS,-29.522,28.6084,59.88,57,39,7.54,scattered clouds
658,Harnai,PK,30.1005,67.9374,50.65,28,0,2.82,clear sky
659,Daru,PG,-9.0763,143.2092,79.92,87,100,5.01,overcast clouds
660,Mareeba,AU,-17.0,145.4333,72.32,89,99,2.8,overcast clouds
661,Jibuti,DJ,11.5,42.5,71.26,72,65,17.29,broken clouds
662,Kutum,SD,14.2,24.6667,68.58,29,77,11.07,broken clouds
663,Plast,RU,54.3691,60.8136,14.59,85,99,17.65,overcast clouds
664,Uravakonda,IN,14.95,77.2667,69.71,70,6,8.28,clear sky
665,Bajil,YE,15.0584,43.2851,78.89,63,5,6.6,clear sky
666,Datong,CN,40.0936,113.2914,12.76,46,3,1.48,clear sky
667,Maku,IR,39.2911,44.4521,33.51,82,60,0.13,broken clouds
668,Launceston,AU,-41.45,147.1667,53.15,91,40,0.0,scattered clouds
669,Porto Novo,BJ,6.4965,2.6036,80.42,72,77,6.96,broken clouds
670,Rusape,ZW,-18.5278,32.1284,59.18,92,100,7.85,overcast clouds
671,Karratha,AU,-20.7377,116.8463,77.38,68,1,10.07,light rain
672,Matagami,CA,49.7502,-77.6328,13.51,90,100,8.63,overcast clouds
673,Grand-Bourg,GP,15.8835,-61.3148,84.15,74,21,18.88,few clouds
674,Cabedelo,BR,-6.9811,-34.8339,84.87,65,99,12.1,overcast clouds
675,Esperance,AU,-33.8667,121.9,58.3,81,24,9.19,few clouds
676,Moron,AR,-34.6534,-58.6198,90.0,50,13,9.8,few clouds
677,Ambulu,ID,-8.345,113.6058,77.61,87,100,6.91,light rain
678,Idar,DE,49.7167,7.3,49.68,89,99,3.0,light rain
679,Axim,GH,4.8699,-2.2405,80.53,75,69,7.4,broken clouds
680,Benguela,AO,-12.5763,13.4055,75.24,73,79,6.58,broken clouds
681,Kobayashi,JP,31.9833,130.9833,33.78,97,96,7.05,snow
682,Bilecik,TR,40.0,30.1667,34.48,69,0,7.65,clear sky
683,Oranjemund,NA,-28.55,16.4333,66.45,88,11,10.02,few clouds
684,Galesburg,US,40.9478,-90.3712,3.7,86,100,16.11,light snow
685,Tiznit,MA,29.5833,-9.5,64.65,40,1,4.38,clear sky
686,Linfen,CN,36.0889,111.5189,31.26,34,8,0.25,clear sky
687,Kenora,CA,49.8167,-94.4337,-8.23,76,100,8.99,light snow
688,Kalnciems,LV,56.8011,23.6097,35.02,98,100,8.55,overcast clouds
689,Terrace,CA,54.5163,-128.6035,9.16,66,100,4.36,overcast clouds
690,Altay,CN,47.8667,88.1167,13.06,93,100,1.79,overcast clouds
691,Lesnoye,RU,58.2841,35.5158,33.51,93,100,8.28,overcast clouds
692,Palmas,BR,-10.2128,-48.3603,78.67,89,75,6.91,broken clouds
693,Mazagao,BR,-0.115,-51.2894,80.65,71,69,5.01,broken clouds
694,Sumbe,AO,-11.2061,13.8437,76.41,75,42,8.12,scattered clouds
695,Tadine,NC,-21.55,167.8833,78.44,82,15,8.81,few clouds
